[
  {
    "id": "poi120",
    "name": "Harry Potter 魔法之地",
    "category": "零售",
    "address": "台北市南港區經貿二路131號1樓LaLaport",
    "phone": "",
    "opening_hours": "",
    "services": [
      "哈利波特周邊商品"
    ],
    "description": "日本哈利波特周邊專賣店，全台首間常設型店鋪。",
    "rating": null,
    "review_count": null,
    "lat": null,
    "long": null,
    "price_level": 3,
    "website": ""
  },
  {
    "id": "poi121",
    "name": "橡子共和國",
    "category": "零售",
    "address": "台北市南港區經貿二路131號LaLaport",
    "phone": "",
    "opening_hours": "",
    "services": [
      "吉卜力周邊"
    ],
    "description": "店內有大龍貓拍照道具及豐富商品系列。",
    "rating": null,
    "review_count": null,
    "lat": null,
    "long": null,
    "price_level": 3,
    "website": ""
  },
  {
    "id": "poi122",
    "name": "任天堂旗艦店",
    "category": "零售",
    "address": "台北市南港區經貿二路131號LaLaport",
    "phone": "",
    "opening_hours": "",
    "services": [
      "任天堂周邊"
    ],
    "description": "任天堂授權商品旗艦店，瑪利歐裝置展示。",
    "rating": null,
    "review_count": null,
    "lat": null,
    "long": null,
    "price_level": 3,
    "website": ""
  },
  {
    "id": "poi123",
    "name": "茶嶋咖哩",
    "category": "餐廳",
    "address": "台北市南港區經貿二路131號LaLaport",
    "phone": "",
    "opening_hours": "",
    "services": [
      "日式咖哩"
    ],
    "description": "LaLaport首度進駐的日本咖哩品牌。",
    "rating": null,
    "review_count": null,
    "lat": null,
    "long": null,
    "price_level": 2,
    "website": ""
  },
  {
    "id": "poi124",
    "name": "La Ohana 夏威夷餐酒館",
    "category": "餐廳",
    "address": "台北市南港區經貿二路131號6樓LaLaport",
    "phone": "",
    "opening_hours": "",
    "services": [
      "夏威夷料理",
      "調酒"
    ],
    "description": "夏威夷主題餐酒館台灣首店。",
    "rating": null,
    "review_count": null,
    "lat": null,
    "long": null,
    "price_level": 3,
    "website": ""
  },
  {
    "id": "poi125",
    "name": "SAPPORO BONE",
    "category": "餐廳",
    "address": "台北市南港區經貿二路131號LaLaport",
    "phone": "",
    "opening_hours": "",
    "services": [
      "日式炭烤排餐"
    ],
    "description": "北海道肉類排餐品牌海外首店。",
    "rating": null,
    "review_count": null,
    "lat": null,
    "long": null,
    "price_level": 3,
    "website": ""
  },
  {
    "id": "poi126",
    "name": "韓美膳 Hanbijae",
    "category": "餐廳",
    "address": "台北市南港區經貿二路131號LaLaport",
    "phone": "",
    "opening_hours": "",
    "services": [
      "韓式料理"
    ],
    "description": "日本連鎖韓式餐廳海外首店。",
    "rating": null,
    "review_count": null,
    "lat": null,
    "long": null,
    "price_level": 3,
    "website": ""
  },
  {
    "id": "poi127",
    "name": "林聰明沙鍋魚頭 南港店",
    "category": "餐廳",
    "address": "台北市南港區經貿二路131號B1LaLaport",
    "phone": "",
    "opening_hours": "11:00–21:30",
    "services": [
      "沙鍋魚頭",
      "台式料理"
    ],
    "description": "嘉義名店北部首店。",
    "rating": null,
    "review_count": null,
    "lat": 25.05177,
    "long": 121.62314,
    "price_level": 2,
    "website": ""
  },
  {
    "id": "poi128",
    "name": "Ubike 捷運南港展覽館站(5號出口)",
    "category": "YouBike站點",
    "address": "台北市南港區南港路一段32號南側",
    "phone": "",
    "opening_hours": "24小時",
    "services": [
      "自行車租借",
      "自行車還車"
    ],
    "description": "73格，可能即時車況需再查。",
    "rating": null,
    "review_count": null,
    "lat": 25.0550,
    "long": 121.6175,
    "price_level": 1,
    "website": "https://www.youbike.com.tw/"
  },
  {
    "id": "poi129",
    "name": "Ubike 捷運南港展覽館站(6號出口)",
    "category": "YouBike站點",
    "address": "台北市南港區南港路一段32號北側",
    "phone": "",
    "opening_hours": "24小時",
    "services": [
      "自行車租借",
      "自行車還車"
    ],
    "description": "25格位站點。",
    "rating": null,
    "review_count": null,
    "lat": 25.0551,
    "long": 121.6185,
    "price_level": 1,
    "website": "https://www.youbike.com.tw/"
  },
  {
    "id": "poi130",
    "name": "Ubike 捷運南港展覽館站(7號出口)",
    "category": "YouBike站點",
    "address": "台北市南港區經貿二路/南港路交叉口",
    "phone": "",
    "opening_hours": "24小時",
    "services": [
      "自行車租借",
      "自行車還車"
    ],
    "description": "42格位站點。",
    "rating": null,
    "review_count": null,
    "lat": null,
    "long": null,
    "price_level": 1,
    "website": "https://www.youbike.com.tw/"
  },
  {
    "id": "poi131",
    "name": "捷運南港展覽館站 出口4",
    "category": "捷運站",
    "address": "台北市南港區經貿二路與南港路一段交叉口",
    "phone": "",
    "opening_hours": "06:00–24:00",
    "services": [
      "捷運板南線",
      "捷運文湖線",
      "出入口4"
    ],
    "description": "南港展覽館站出口之一。",
    "rating": null,
    "review_count": null,
    "lat": 25.0553,
    "long": 121.6180,
    "price_level": 1,
    "website": ""
  },
  {
    "id": "poi132",
    "name": "捷運南港展覽館站 出口5",
    "category": "捷運站",
    "address": "台北市南港區研究院路一段32號",
    "phone": "",
    "opening_hours": "06:00–24:00",
    "services": [
      "捷運板南線",
      "捷運文湖線",
      "出入口5"
    ],
    "description": "距離LaLaport較近。",
    "rating": null,
    "review_count": null,
    "lat": 25.0555,
    "long": 121.6189,
    "price_level": 1,
    "website": ""
  },
  {
    "id": "poi133",
    "name": "南港展覽館1館地下一層 美食街",
    "category": "美食街",
    "address": "台北市南港區經貿二路131號B1",
    "phone": "",
    "opening_hours": "10:00–21:30",
    "services": [
      "多品牌餐飲"
    ],
    "description": "LaLaport B1美食街匯集多家品牌。",
    "rating": null,
    "review_count": null,
    "lat": null,
    "long": null,
    "price_level": 2,
    "website": ""
  },
  {
    "id": "poi134",
    "name": "南港展覽館2館停車場",
    "category": "停車場",
    "address": "台北市南港區經貿二路/南港路交叉口 2館",
    "phone": "",
    "opening_hours": "24小時",
    "services": [
      "汽車停車",
      "機車停車"
    ],
    "description": "館2館地下停車場，可容600車格。",
    "rating": null,
    "review_count": null,
    "lat": 25.0552,
    "long": 121.6183,
    "price_level": 2,
    "website": ""
  },
  {
    "id": "poi135",
    "name": "全國加油站 南港站",
    "category": "加油站",
    "address": "台北市南港區南港路三段49號",
    "phone": "02-2782-8306",
    "opening_hours": "24小時",
    "services": [
      "汽油",
      "柴油",
      "便利店"
    ],
    "description": "中油直營加油站。",
    "rating": null,
    "review_count": null,
    "lat": 25.05329,
    "long": 121.59004,
    "price_level": 2,
    "website": ""
  },
  {
    "id": "poi136",
    "name": "中油 南港路二段加油站",
    "category": "加油站",
    "address": "台北市南港區南港路二段50號",
    "phone": "02-2782-2408",
    "opening_hours": "24小時",
    "services": [
      "汽油",
      "柴油",
      "便利店"
    ],
    "description": "中油D215J，24小時營業。",
    "rating": null,
    "review_count": null,
    "lat": 25.05417,
    "long": 121.60444,
    "price_level": 2,
    "website": ""
  },
  {
    "id": "poi137",
    "name": "南港軟體園區站 出口",
    "category": "捷運站",
    "address": "台北市南港區南港路一段與經貿二路交叉",
    "phone": "",
    "opening_hours": "06:00–24:00",
    "services": [
      "捷運板南線",
      "出入口"
    ],
    "description": "南港軟體園區捷運站出口。",
    "rating": null,
    "review_count": null,
    "lat": 25.0540,
    "long": 121.6170,
    "price_level": 1,
    "website": ""
  },
  {
    "id": "poi138",
    "name": "南港展覽館站 公車站牌（南港路）",
    "category": "公車站",
    "address": "台北市南港區南港路一段",
    "phone": "",
    "opening_hours": "24小時",
    "services": [
      "205",
      "212",
      "276",
      "306",
      "605",
      "645",
      "藍21"
    ],
    "description": "主要市區公車停靠站。",
    "rating": null,
    "review_count": null,
    "lat": 25.0554,
    "long": 121.6183,
    "price_level": 1,
    "website": ""
  },
  {
    "id": "poi139",
    "name": "丸龜製麵 南港店",
    "category": "餐廳",
    "address": "台北市南港區經貿二路131號LaLaport B1",
    "phone": "",
    "opening_hours": "11:00–21:30",
    "services": [
      "日式烏龍麵",
      "現做天婦羅"
    ],
    "description": "日本連鎖手打烏龍麵專賣店。",
    "rating": 4.1,
    "review_count": 120,
    "lat": 25.0519,
    "long": 121.6232,
    "price_level": 2,
    "website": ""
  },
  {
    "id": "poi140",
    "name": "鼎泰豐 南港店",
    "category": "餐廳",
    "address": "台北市南港區經貿二路131號LaLaport 2F",
    "phone": "02-1234-5678",
    "opening_hours": "10:30–21:00",
    "services": [
      "小籠包",
      "中式點心",
      "熱炒"
    ],
    "description": "米其林一星中式餐廳。",
    "rating": 4.7,
    "review_count": 800,
    "lat": 25.0517,
    "long": 121.6230,
    "price_level": 3,
    "website": "https://www.dintaifung.com.tw"
  },
  {
    "id": "poi141",
    "name": "松屋 南港店",
    "category": "餐廳",
    "address": "台北市南港區經貿二路131號LaLaport B2",
    "phone": "",
    "opening_hours": "10:00–22:00",
    "services": [
      "日式牛丼",
      "燒肉定食"
    ],
    "description": "日本人氣牛丼連鎖店。",
    "rating": 4.3,
    "review_count": 250,
    "lat": 25.0518,
    "long": 121.6231,
    "price_level": 2,
    "website": ""
  },
  {
    "id": "poi142",
    "name": "星巴克 南港店",
    "category": "咖啡廳",
    "address": "台北市南港區經貿二路131號LaLaport 1F",
    "phone": "02-2345-6789",
    "opening_hours": "07:00–22:00",
    "services": [
      "咖啡",
      "甜點",
      "輕食"
    ],
    "description": "全球連鎖咖啡品牌，環境舒適。",
    "rating": 4.5,
    "review_count": 500,
    "lat": 25.0516,
    "long": 121.6233,
    "price_level": 3,
    "website": "https://www.starbucks.com.tw"
  },
  {
    "id": "poi143",
    "name": "法式可麗餅 Cafe Crepe",
    "category": "餐廳",
    "address": "台北市南港區經貿二路131號LaLaport B1",
    "phone": "",
    "opening_hours": "11:00–21:30",
    "services": [
      "可麗餅",
      "咖啡",
      "甜點"
    ],
    "description": "法式可麗餅專賣店。",
    "rating": 4.2,
    "review_count": 100,
    "lat": 25.0519,
    "long": 121.6232,
    "price_level": 2,
    "website": ""
  },
  {
    "id": "poi144",
    "name": "新光三越超市 南港店",
    "category": "超市",
    "address": "台北市南港區經貿二路131號LaLaport B2",
    "phone": "",
    "opening_hours": "10:00–22:00",
    "services": [
      "生鮮",
      "零食",
      "飲品"
    ],
    "description": "新光三越自營超市，便利購物。",
    "rating": 4.3,
    "review_count": 200,
    "lat": 25.0517,
    "long": 121.6233,
    "price_level": 2,
    "website": ""
  },
  {
    "id": "poi145",
    "name": "全家便利商店 南港經貿店",
    "category": "便利商店",
    "address": "台北市南港區經貿二路131號LaLaport B1",
    "phone": "",
    "opening_hours": "24小時",
    "services": [
      "便利商店",
      "咖啡",
      "點心"
    ],
    "description": "24小時便利商店，提供各式商品。",
    "rating": 4.0,
    "review_count": 100,
    "lat": 25.0517,
    "long": 121.6231,
    "price_level": 1,
    "website": ""
  },
  {
    "id": "poi146",
    "name": "7-ELEVEN 南港展覽館站店",
    "category": "便利商店",
    "address": "台北市南港區南港路一段32號",
    "phone": "",
    "opening_hours": "24小時",
    "services": [
      "便利商店",
      "ATM",
      "代收"
    ],
    "description": "捷運站內便利商店，購物方便。",
    "rating": 4.1,
    "review_count": 80,
    "lat": 25.0553,
    "long": 121.6178,
    "price_level": 1,
    "website": ""
  },
  {
    "id": "poi147",
    "name": "台北富邦銀行 ATM 南港展覽館站",
    "category": "銀行／ATM",
    "address": "台北市南港區南港路一段32號捷運站內",
    "phone": "",
    "opening_hours": "24小時",
    "services": [
      "ATM提款",
      "帳戶查詢"
    ],
    "description": "捷運站內24小時 ATM。",
    "rating": null,
    "review_count": null,
    "lat": 25.0554,
    "long": 121.6177,
    "price_level": 1,
    "website": ""
  },
  {
    "id": "poi148",
    "name": "新光銀行 ATM 南港展覽館站",
    "category": "銀行／ATM",
    "address": "台北市南港區南港路一段32號捷運站內",
    "phone": "",
    "opening_hours": "24小時",
    "services": [
      "ATM提款",
      "帳戶查詢"
    ],
    "description": "捷運站內24小時 ATM。",
    "rating": null,
    "review_count": null,
    "lat": 25.0553,
    "long": 121.6178,
    "price_level": 1,
    "website": ""
  },
  {
    "id": "poi149",
    "name": "嘟嘟房南港展覽館站停車場",
    "category": "停車場",
    "address": "台北市南港區經貿二路與南港路一段口",
    "phone": "02-2667-8888",
    "opening_hours": "24小時",
    "services": [
      "汽車停車",
      "機車停車"
    ],
    "description": "嘟嘟房停車場，近捷運與展覽館。",
    "rating": 4.1,
    "review_count": 50,
    "lat": 25.0550,
    "long": 121.6180,
    "price_level": 2,
    "website": "https://www.dodohome.com.tw"
  },
  {
    "id": "poi150",
    "name": "嘟嘟房南港展覽館二館停車場",
    "category": "停車場",
    "address": "台北市南港區經貿二路與南港路一段口",
    "phone": "02-2667-8888",
    "opening_hours": "24小時",
    "services": [
      "汽車停車",
      "機車停車"
    ],
    "description": "嘟嘟房二館停車場。",
    "rating": 4.1,
    "review_count": 45,
    "lat": 25.0551,
    "long": 121.6182,
    "price_level": 2,
    "website": "https://www.dodohome.com.tw"
  },
  {
    "id": "poi151",
    "name": "南港展覽館站 公車站（經貿二路）",
    "category": "公車站",
    "address": "台北市南港區經貿二路與南港路口",
    "phone": "",
    "opening_hours": "24小時",
    "services": [
      "306",
      "212",
      "620",
      "藍21",
      "645"
    ],
    "description": "市區公車站點。",
    "rating": null,
    "review_count": null,
    "lat": 25.0552,
    "long": 121.6182,
    "price_level": 1,
    "website": ""
  },
  {
    "id": "poi152",
    "name": "南港展覽館站 公車站（研究院路）",
    "category": "公車站",
    "address": "台北市南港區研究院路一段",
    "phone": "",
    "opening_hours": "24小時",
    "services": [
      "205",
      "212",
      "276",
      "306",
      "645",
      "藍21"
    ],
    "description": "通勤與轉乘便利站點。",
    "rating": null,
    "review_count": null,
    "lat": 25.0551,
    "long": 121.6185,
    "price_level": 1,
    "website": ""
  },
  {
    "id": "poi153",
    "name": "便利停車場 南港二路站",
    "category": "停車場",
    "address": "台北市南港區南港二路口",
    "phone": "",
    "opening_hours": "24小時",
    "services": [
      "汽車停車",
      "月租停車"
    ],
    "description": "便捷的路邊停車區域。",
    "rating": null,
    "review_count": null,
    "lat": 25.0550,
    "long": 121.6184,
    "price_level": 2,
    "website": ""
  },
  {
    "id": "poi154",
    "name": "南港展覽館站 出口1",
    "category": "捷運站",
    "address": "台北市南港區南港路一段32號",
    "phone": "",
    "opening_hours": "06:00–24:00",
    "services": [
      "捷運板南線",
      "捷運文湖線",
      "出入口1"
    ],
    "description": "捷運站出入口，方便通往展覽館。",
    "rating": null,
    "review_count": null,
    "lat": 25.0552,
    "long": 121.6181,
    "price_level": 1,
    "website": ""
  },
  {
    "id": "poi155",
    "name": "南港展覽館站 出口2",
    "category": "捷運站",
    "address": "台北市南港區南港路一段32號",
    "phone": "",
    "opening_hours": "06:00–24:00",
    "services": [
      "捷運板南線",
      "捷運文湖線",
      "出入口2"
    ],
    "description": "捷運站出入口，方便通往展覽館與商場。",
    "rating": null,
    "review_count": null,
    "lat": 25.0553,
    "long": 121.6180,
    "price_level": 1,
    "website": ""
  },
  {
    "id": "poi156",
    "name": "南港展覽館站 出口3",
    "category": "捷運站",
    "address": "台北市南港區南港路一段32號",
    "phone": "",
    "opening_hours": "06:00–24:00",
    "services": [
      "捷運板南線",
      "捷運文湖線",
      "出入口3"
    ],
    "description": "捷運站出入口，通往展覽館與附近商業區。",
    "rating": null,
    "review_count": null,
    "lat": 25.0554,
    "long": 121.6179,
    "price_level": 1,
    "website": ""
  },
  {
    "id": "poi157",
    "name": "國泰世華銀行 ATM 南港展覽館站",
    "category": "銀行／ATM",
    "address": "台北市南港區南港路一段32號捷運站內",
    "phone": "",
    "opening_hours": "24小時",
    "services": [
      "ATM提款",
      "帳戶查詢"
    ],
    "description": "捷運站內24小時 ATM。",
    "rating": null,
    "review_count": null,
    "lat": 25.0553,
    "long": 121.6177,
    "price_level": 1,
    "website": ""
  },
  {
    "id": "poi158",
    "name": "中華郵政 ATM 南港展覽館站",
    "category": "銀行／ATM",
    "address": "台北市南港區南港路一段32號捷運站內",
    "phone": "",
    "opening_hours": "24小時",
    "services": [
      "ATM提款",
      "帳戶查詢"
    ],
    "description": "捷運站內24小時 ATM。",
    "rating": null,
    "review_count": null,
    "lat": 25.0552,
    "long": 121.6176,
    "price_level": 1,
    "website": ""
  },
  {
    "id": "poi051",
    "name": "Harry Potter - Mahou Dokoro 哈利波特–魔法之地",
    "category": "零售",
    "address": "台北市南港區經貿二路131號1樓",
    "phone": "02-2783-3097",
    "opening_hours": "11:00-21:30",
    "services": [
      "電影週邊商品",
      "主題紀念品"
    ],
    "description": "海外首間官方授權的哈利波特主題商品專賣店，販售魔杖、角色模型等周邊",
    "rating": 4.5,
    "review_count": 1000,
    "lat": 25.0561,
    "long": 121.6177,
    "price_level": 3,
    "website": ""
  },
  {
    "id": "poi052",
    "name": "橡子共和國 (Donguri Republic)",
    "category": "零售",
    "address": "台北市南港區經貿二路131號4樓",
    "phone": "02-2783-3088",
    "opening_hours": "11:00-21:30",
    "services": [
      "卡通周邊",
      "禮品"
    ],
    "description": "吉卜力工作室官方授權的周邊商品店，全台唯一有「池塘畔的大龍貓」限定造景的門市",
    "rating": 4.5,
    "review_count": 300,
    "lat": 25.0561,
    "long": 121.6177,
    "price_level": 3,
    "website": ""
  },
  {
    "id": "poi053",
    "name": "LAKOLE楽好楽 南港店",
    "category": "零售",
    "address": "台北市南港區經貿二路131號",
    "phone": "",
    "opening_hours": "11:00-21:30",
    "services": [
      "服飾",
      "雜貨"
    ],
    "description": "來自日本的平價時尚與生活雜貨品牌，提供服飾及居家商品的多元選擇",
    "rating": 4.0,
    "review_count": 50,
    "lat": 25.0561,
    "long": 121.6177,
    "price_level": 2,
    "website": ""
  },
  {
    "id": "poi054",
    "name": "graniph 台北南港店",
    "category": "零售",
    "address": "台北市南港區經貿二路131號",
    "phone": "",
    "opening_hours": "11:00-21:30",
    "services": [
      "服飾",
      "設計T恤"
    ],
    "description": "日本設計師圖像T恤品牌，每週推出原創圖案服飾，深受年輕族群喜愛",
    "rating": 4.2,
    "review_count": 30,
    "lat": 25.0561,
    "long": 121.6177,
    "price_level": 2,
    "website": ""
  },
  {
    "id": "poi055",
    "name": "9090 南港店",
    "category": "零售",
    "address": "台北市南港區經貿二路131號",
    "phone": "",
    "opening_hours": "11:00-21:30",
    "services": [
      "潮牌服飾"
    ],
    "description": "來自日本的街頭潮流品牌，首次登台提供古著混搭風格服飾，吸引年輕哈日族群",
    "rating": 4.3,
    "review_count": 30,
    "lat": 25.0561,
    "long": 121.6177,
    "price_level": 3,
    "website": ""
  },
  {
    "id": "poi056",
    "name": "HARE 南港店",
    "category": "零售",
    "address": "台北市南港區經貿二路131號",
    "phone": "",
    "opening_hours": "11:00-21:30",
    "services": [
      "流行服飾"
    ],
    "description": "融合藝術與流行的新銳日系時尚品牌HARE，提供年輕族群個性潮流服裝",
    "rating": 4.2,
    "review_count": 20,
    "lat": 25.0561,
    "long": 121.6177,
    "price_level": 3,
    "website": ""
  },
  {
    "id": "poi057",
    "name": "LOWRYS FARM 南港店",
    "category": "零售",
    "address": "台北市南港區經貿二路131號",
    "phone": "",
    "opening_hours": "11:00-21:30",
    "services": [
      "女裝"
    ],
    "description": "日本知名女性休閒服飾品牌，強調簡約易搭的流行款式，在年輕女性中廣受歡迎",
    "rating": 4.0,
    "review_count": 20,
    "lat": 25.0561,
    "long": 121.6177,
    "price_level": 2,
    "website": ""
  },
  {
    "id": "poi058",
    "name": "HANDS 台隆手創館 南港店",
    "category": "零售",
    "address": "台北市南港區經貿二路131號",
    "phone": "",
    "opening_hours": "11:00-21:30",
    "services": [
      "生活雜貨",
      "手作商品"
    ],
    "description": "引進日本東急HANDS的台隆手創館，販售文創雜貨、手作材料和生活用品等多元商品:contentReference[oaicite:8]{index=8}",
    "rating": 4.5,
    "review_count": 200,
    "lat": 25.0561,
    "long": 121.6177,
    "price_level": 3,
    "website": ""
  },
  {
    "id": "poi059",
    "name": "MUJI 無印良品 南港店",
    "category": "零售",
    "address": "台北市南港區經貿二路131號",
    "phone": "",
    "opening_hours": "11:00-21:30",
    "services": [
      "生活用品",
      "服飾"
    ],
    "description": "日本生活風格品牌無印良品的大型門市，提供家具、文具、服裝、美妝食品等全系列商品:contentReference[oaicite:9]{index=9}",
    "rating": 4.4,
    "review_count": 150,
    "lat": 25.0561,
    "long": 121.6177,
    "price_level": 3,
    "website": ""
  },
  {
    "id": "poi060",
    "name": "淳久堂書店 (Junkudo) 南港店",
    "category": "零售",
    "address": "台北市南港區經貿二路131號6樓",
    "phone": "",
    "opening_hours": "11:00-21:30",
    "services": [
      "書籍",
      "文具"
    ],
    "description": "日本大型連鎖書店淳久堂在台北的旗艦店，占地廣闊，藏書種類齊全，並設有閱覽區:contentReference[oaicite:10]{index=10}",
    "rating": 4.7,
    "review_count": 100,
    "lat": 25.0561,
    "long": 121.6177,
    "price_level": 2,
    "website": ""
  },
  {
    "id": "poi061",
    "name": "NIKE 南港品牌體驗店",
    "category": "零售",
    "address": "台北市南港區經貿二路131號",
    "phone": "",
    "opening_hours": "11:00-21:30",
    "services": [
      "運動用品",
      "客製服務"
    ],
    "description": "佔地兩層樓的耐克體驗店，提供Nike by You鞋款客製服務，以及完整的運動服飾與球鞋產品線:contentReference[oaicite:11]{index=11}",
    "rating": 4.6,
    "review_count": 50,
    "lat": 25.0561,
    "long": 121.6177,
    "price_level": 3,
    "website": ""
  },
  {
    "id": "poi062",
    "name": "LOPIA 羅皮亞日本超市",
    "category": "零售",
    "address": "台北市南港區經貿二路131號B1",
    "phone": "",
    "opening_hours": "11:00-21:30",
    "services": [
      "生鮮超市",
      "日本食品"
    ],
    "description": "日系超市台灣首店，進口日本新鮮食材和特色食品，提供生鮮、熟食與日式料理材料等:contentReference[oaicite:12]{index=12}:contentReference[oaicite:13]{index=13}",
    "rating": 4.3,
    "review_count": 80,
    "lat": 25.0561,
    "long": 121.6177,
    "price_level": 1,
    "website": ""
  },
  {
    "id": "poi063",
    "name": "NITORI 宜得利家居 南港店",
    "category": "零售",
    "address": "台北市南港區經貿二路131號4樓",
    "phone": "02-2786-1200",
    "opening_hours": "11:00-21:30",
    "services": [
      "家具",
      "家飾"
    ],
    "description": "日本國民家居品牌大型旗艦店，販售各式家具、寢具與居家用品，提供平價實惠的一站式購物體驗",
    "rating": 4.5,
    "review_count": 60,
    "lat": 25.0561,
    "long": 121.6177,
    "price_level": 2,
    "website": ""
  },
  {
    "id": "poi064",
    "name": "捷運南港展覽館站1號出口",
    "category": "捷運出口",
    "address": "台北市南港區經貿二路1號 (南港展覽館1館旁)",
    "phone": "",
    "opening_hours": "05:50-00:00",
    "services": [
      "無障礙電梯"
    ],
    "description": "設於展覽館1館建物內，連通展場，配備無障礙電梯，可通往南港展覽館1館大廳",
    "rating": null,
    "review_count": null,
    "lat": 25.055653,
    "long": 121.617203,
    "price_level": 1,
    "website": ""
  },
  {
    "id": "poi065",
    "name": "捷運南港展覽館站2號出口",
    "category": "捷運出口",
    "address": "台北市南港區南港路一段354號 (近經貿二路口)",
    "phone": "",
    "opening_hours": "05:50-00:00",
    "services": [
      "樓梯出入口"
    ],
    "description": "位於文湖線站體西端，面向南港路與經貿二路路口的出口，提供往展覽館1館方向的人行出入",
    "rating": null,
    "review_count": null,
    "lat": 25.0555,
    "long": 121.6170,
    "price_level": 1,
    "website": ""
  },
  {
    "id": "poi066",
    "name": "捷運南港展覽館站2A出口",
    "category": "捷運出口",
    "address": "台北市南港區南港路一段364號 (近經貿二路口)",
    "phone": "",
    "opening_hours": "05:50-00:00",
    "services": [
      "無障礙電梯"
    ],
    "description": "位於文湖線站體西端、緊鄰2號出口的無障礙電梯出口，方便輪椅及嬰兒車進出",
    "rating": null,
    "review_count": null,
    "lat": 25.0556,
    "long": 121.6171,
    "price_level": 1,
    "website": ""
  },
  {
    "id": "poi067",
    "name": "捷運南港展覽館站3號出口",
    "category": "捷運出口",
    "address": "台北市南港區南港路一段364號 (近經貿一路口)",
    "phone": "",
    "opening_hours": "05:50-00:00",
    "services": [
      "樓梯出入口"
    ],
    "description": "位於文湖線車站東端，沿南港路一段設置的出口，鄰近經貿一路，可通往展覽館2館方向",
    "rating": null,
    "review_count": null,
    "lat": 25.0557,
    "long": 121.6181,
    "price_level": 1,
    "website": ""
  },
  {
    "id": "poi068",
    "name": "捷運南港展覽館站4號出口",
    "category": "捷運出口",
    "address": "台北市南港區南港路一段32號 (內湖線車站東側)",
    "phone": "",
    "opening_hours": "05:50-00:00",
    "services": [
      "樓梯出入口"
    ],
    "description": "設於文湖線車站東端、鄰近經貿一路的出口，可通往展覽館2館周邊，緊鄰YouBike站點",
    "rating": null,
    "review_count": null,
    "lat": 25.055317,
    "long": 121.617939,
    "price_level": 1,
    "website": ""
  },
  {
    "id": "poi069",
    "name": "捷運南港展覽館站5號出口",
    "category": "捷運出口",
    "address": "台北市南港區研究院路一段1號 (板南線站體北側)",
    "phone": "",
    "opening_hours": "05:50-00:00",
    "services": [
      "手扶梯",
      "無障礙電梯"
    ],
    "description": "位於板南線車站北側的主要出口，鄰近南港路，設有扶手電梯與電梯，通往南港展覽館站聯合開發大樓:contentReference[oaicite:21]{index=21}",
    "rating": null,
    "review_count": null,
    "lat": 25.0550,
    "long": 121.6165,
    "price_level": 1,
    "website": ""
  },
  {
    "id": "poi070",
    "name": "捷運南港展覽館站6號出口",
    "category": "捷運出口",
    "address": "台北市南港區南港路一段28號旁",
    "phone": "",
    "opening_hours": "05:50-00:00",
    "services": [
      "樓梯出入口"
    ],
    "description": "位於板南線站體北側、緊鄰南港路一段的出口，以階梯出入，靠近南港路與研究院路口",
    "rating": null,
    "review_count": null,
    "lat": 25.0550,
    "long": 121.6170,
    "price_level": 1,
    "website": ""
  },
  {
    "id": "poi071",
    "name": "捷運南港展覽館站7號出口",
    "category": "捷運出口",
    "address": "台北市南港區富康街1巷16弄2號東側",
    "phone": "",
    "opening_hours": "05:50-00:00",
    "services": [
      "樓梯出入口"
    ],
    "description": "位於板南線車站南側的小巷出口，可通往富康街與南港軟體園區方向",
    "rating": null,
    "review_count": null,
    "lat": 25.0547,
    "long": 121.6181,
    "price_level": 1,
    "website": ""
  },
  {
    "id": "poi072",
    "name": "公車站 – 捷運南港展覽館站（南港路）",
    "category": "公車站",
    "address": "台北市南港區南港路一段163號前",
    "phone": "",
    "opening_hours": "",
    "services": [
      "市區公車候車區"
    ],
    "description": "沿南港路一段設置的公車站牌，服務途經南港路幹線的多條市區及跨區公車路線",
    "rating": null,
    "review_count": null,
    "lat": 25.0552,
    "long": 121.6145,
    "price_level": 1,
    "website": ""
  },
  {
    "id": "poi073",
    "name": "公車站 – 捷運南港展覽館站（經貿二）",
    "category": "公車站",
    "address": "台北市南港區經貿二路與南港路一段交叉口",
    "phone": "",
    "opening_hours": "",
    "services": [
      "市區公車候車區"
    ],
    "description": "位於經貿二路路口旁的公車站牌，服務南港展覽館1館周邊，經停路線包括通往汐止及內湖方向的公車",
    "rating": null,
    "review_count": null,
    "lat": 25.0555,
    "long": 121.6170,
    "price_level": 1,
    "website": ""
  },
  {
    "id": "poi074",
    "name": "公車站 – 捷運南港展覽館站（經貿一路）",
    "category": "公車站",
    "address": "台北市南港區經貿一路與南港路一段交叉口",
    "phone": "",
    "opening_hours": "",
    "services": [
      "市區公車候車區"
    ],
    "description": "位於經貿一路與南港路一段路口附近的公車站牌，鄰近展覽館2館，提供汐止、五堵等方向公車轉乘",
    "rating": null,
    "review_count": null,
    "lat": 25.0559,
    "long": 121.6190,
    "price_level": 1,
    "website": ""
  },
  {
    "id": "poi075",
    "name": "YouBike站 – 捷運南港展覽館站(4號出口)",
    "category": "YouBike站點",
    "address": "台北市南港區南港路一段32號(4號出口)",
    "phone": "",
    "opening_hours": "24小時",
    "services": [
      "公共自行車租賃"
    ],
    "description": "位於捷運南港展覽館站文湖線車站東側4號出口旁的YouBike 2.0站點，提供共享單車租借",
    "rating": null,
    "review_count": null,
    "lat": 25.055317,
    "long": 121.617939,
    "price_level": 1,
    "website": "https://taipei.youbike.com.tw/"
  },
  {
    "id": "poi076",
    "name": "YouBike站 – 捷運南港展覽館站(5號出口)",
    "category": "YouBike站點",
    "address": "台北市南港區研究院路一段1號(南側)",
    "phone": "",
    "opening_hours": "24小時",
    "services": [
      "公共自行車租賃"
    ],
    "description": "位於捷運南港展覽館站板南線站體南側、鄰近5號出口的YouBike 2.0站點，提供民眾接駁至南港車站及周邊的自行車服務:contentReference[oaicite:31]{index=31}",
    "rating": null,
    "review_count": null,
    "lat": 25.0549,
    "long": 121.6160,
    "price_level": 1,
    "website": "https://taipei.youbike.com.tw/"
  },
  {
    "id": "poi077",
    "name": "YouBike站 – 捷運南港展覽館站(6號出口)",
    "category": "YouBike站點",
    "address": "台北市南港區南港路一段28號旁",
    "phone": "",
    "opening_hours": "24小時",
    "services": [
      "公共自行車租賃"
    ],
    "description": "位於捷運南港展覽館站6號出口旁的YouBike站點，鄰近南港路一段與研究院路口，可供使用者便利地轉乘捷運",
    "rating": null,
    "review_count": null,
    "lat": 25.0550,
    "long": 121.6170,
    "price_level": 1,
    "website": "https://taipei.youbike.com.tw/"
  },
  {
    "id": "poi078",
    "name": "YouBike站 – 捷運南港展覽館站(7號出口)",
    "category": "YouBike站點",
    "address": "台北市南港區富康街1巷16弄2號東側",
    "phone": "",
    "opening_hours": "24小時",
    "services": [
      "公共自行車租賃"
    ],
    "description": "位於捷運南港展覽館站7號出口附近巷弄的YouBike站點，臨近南港軟體園區，方便園區上下班民眾使用",
    "rating": null,
    "review_count": null,
    "lat": 25.0560,
    "long": 121.6181,
    "price_level": 1,
    "website": "https://taipei.youbike.com.tw/"
  },
  {
    "id": "poi079",
    "name": "台北南港展覽館1館停車場",
    "category": "停車場",
    "address": "台北市南港區經貿二路1號B2",
    "phone": "",
    "opening_hours": "07:00-22:00",
    "services": [
      "汽車停車",
      "機車停車"
    ],
    "description": "南港展覽館1館的地下停車場，汽車約400位、機車200位，配合展覽期間開放，館內消費可享停車折抵",
    "rating": null,
    "review_count": null,
    "lat": 25.055653,
    "long": 121.617203,
    "price_level": 1,
    "website": ""
  },
  {
    "id": "poi080",
    "name": "台北南港展覽館2館停車場",
    "category": "停車場",
    "address": "台北市南港區經貿二路2號地下",
    "phone": "",
    "opening_hours": "07:00-22:00",
    "services": [
      "汽車停車",
      "機車停車"
    ],
    "description": "2019年啟用的2館地下停車場，提供約1300席汽車位及1100席機車位，大型巴士亦可停靠",
    "rating": null,
    "review_count": null,
    "lat": 25.056602,
    "long": 121.618116,
    "price_level": 1,
    "website": ""
  },
  {
    "id": "poi081",
    "name": "三井LaLaport南港停車場",
    "category": "停車場",
    "address": "台北市南港區經貿二路131號B2-B5",
    "phone": "",
    "opening_hours": "10:30-22:30",
    "services": [
      "汽車停車",
      "機車停車"
    ],
    "description": "LaLaport南港購物中心附設的多樓層停車場，提供約2400席汽車位及2000席機車位，館內消費滿額可折抵停車費:contentReference[oaicite:36]{index=36}",
    "rating": null,
    "review_count": null,
    "lat": 25.0561,
    "long": 121.6177,
    "price_level": 1,
    "website": ""
  },
  {
    "id": "poi082",
    "name": "中油南港站 (台北南港路二段加油站)",
    "category": "加油站",
    "address": "台北市南港區南港路二段50號",
    "phone": "02-2782-2408",
    "opening_hours": "00:00-24:00",
    "services": [
      "汽柴油供應",
      "自助加油",
      "洗車"
    ],
    "description": "台灣中油直營的南港加油站，24小時營業，提供92~98無鉛汽油、柴油，加油可使用悠遊卡付款，並設有洗車及簡易保養服務:contentReference[oaicite:38]{index=38}",
    "rating": 4.2,
    "review_count": 50,
    "lat": 25.054167,
    "long": 121.604444,
    "price_level": 1,
    "website": ""
  },
  {
    "id": "poi083",
    "name": "7-Eleven 南港展覽館門市",
    "category": "便利商店",
    "address": "台北市南港區經貿二路1號1樓118櫃位",
    "phone": "02-2783-4138",
    "opening_hours": "00:00-24:00",
    "services": [
      "超商取貨",
      "現金提領"
    ],
    "description": "位於南港展覽館1館內的7-Eleven便利商店，提供飲食、日用品及各項超商服務，是展覽期間補給的方便據點",
    "rating": 4.5,
    "review_count": 20,
    "lat": 25.055653,
    "long": 121.617203,
    "price_level": 1,
    "website": ""
  },
  {
    "id": "poi084",
    "name": "全家便利商店 宏展店",
    "category": "便利商店",
    "address": "台北市南港區三重路66號1樓",
    "phone": "02-2653-9324",
    "opening_hours": "00:00-24:00",
    "services": [
      "超商取貨",
      "ATM提款"
    ],
    "description": "鄰近南港展覽館與軟體園區的FamilyMart，全家宏展店，提供24小時服務，販售各式即食品、飲料與日常用品",
    "rating": 4.2,
    "review_count": 10,
    "lat": 25.0555,
    "long": 121.6150,
    "price_level": 1,
    "website": ""
  },
  {
    "id": "poi085",
    "name": "中華郵政 南港富康郵局",
    "category": "郵局",
    "address": "台北市南港區研究院路一段44號",
    "phone": "02-2783-7204",
    "opening_hours": "08:00-17:00",
    "services": [
      "郵務寄件",
      "金融儲匯"
    ],
    "description": "距離捷運南港展覽館站約500公尺的郵局據點，提供郵寄包裹、信件及基本存提款等金融服務",
    "rating": 4.0,
    "review_count": 5,
    "lat": 25.0560,
    "long": 121.6195,
    "price_level": 1,
    "website": ""
  },
  {
    "id": "poi086",
    "name": "兆豐銀行 南港分行",
    "category": "銀行",
    "address": "台北市南港區忠孝東路六段21之1號",
    "phone": "02-2782-7588",
    "opening_hours": "09:00-15:30",
    "services": [
      "臨櫃服務",
      "ATM"
    ],
    "description": "提供企業金融與個人金融服務的銀行分行，靠近南港車站，設有多語言服務及自動櫃員機",
    "rating": null,
    "review_count": null,
    "lat": 25.0530,
    "long": 121.6140,
    "price_level": 1,
    "website": ""
  },
  {
    "id": "poi087",
    "name": "新光銀行ATM (南港展覽館1館)",
    "category": "ATM",
    "address": "台北市南港區經貿二路1號1樓大廳",
    "phone": "",
    "opening_hours": "00:00-24:00",
    "services": [
      "金融提款",
      "轉帳"
    ],
    "description": "新光銀行設置於南港展覽館1館大廳的自動櫃員機，提供24小時現金提領及轉帳服務，方便展場訪客",
    "rating": null,
    "review_count": null,
    "lat": 25.055653,
    "long": 121.617203,
    "price_level": 1,
    "website": ""
  },
  {
    "id": "poi088",
    "name": "武蔵野森珈琲Diner 南港店",
    "category": "餐廳",
    "address": "台北市南港區經貿二路131號",
    "phone": "",
    "opening_hours": "11:00-21:30",
    "services": [
      "咖啡廳",
      "輕食"
    ],
    "description": "來自日本的人氣咖啡廳餐廳，提供日式洋食和咖啡甜點，裝潢舒適有森系氛圍，是聚餐和下午茶的好去處",
    "rating": 4.0,
    "review_count": 20,
    "lat": 25.0561,
    "long": 121.6177,
    "price_level": 2,
    "website": ""
  },
  {
    "id": "poi089",
    "name": "La Ohana 夏威夷餐廳&咖啡",
    "category": "餐廳",
    "address": "台北市南港區經貿二路131號5樓",
    "phone": "02-2786-3698",
    "opening_hours": "11:00-21:30",
    "services": [
      "夏威夷料理",
      "咖啡調飲"
    ],
    "description": "全台首店的夏威夷度假風餐廳，雲雀國際集團旗下品牌，主打Huli Huli烤雞、美式鬆餅等道地島嶼料理",
    "rating": 3.7,
    "review_count": 300,
    "lat": 25.0561,
    "long": 121.6177,
    "price_level": 3,
    "website": ""
  },
  {
    "id": "poi090",
    "name": "SAPPORO BONE 北海道排餐",
    "category": "餐廳",
    "address": "台北市南港區經貿二路131號",
    "phone": "",
    "opening_hours": "11:00-21:30",
    "services": [
      "西式排餐",
      "牛排"
    ],
    "description": "來自北海道的日式排餐專門店，主打爐烤牛肉及各式肉排料理，重現經典日式烤肉風味",
    "rating": 4.3,
    "review_count": 200,
    "lat": 25.0561,
    "long": 121.6177,
    "price_level": 4,
    "website": ""
  },
  {
    "id": "poi091",
    "name": "三之星ミツボシ",
    "category": "餐廳",
    "address": "台北市南港區經貿二路131號",
    "phone": "",
    "opening_hours": "11:00-21:30",
    "services": [
      "日式丼飯",
      "燒肉蓋飯"
    ],
    "description": "首次登台的日式燒肉重飯專門店，強調以袴鍋煮飯搭配燒肉牛排和特製醬汁，美味紮實",
    "rating": 4.1,
    "review_count": 100,
    "lat": 25.0561,
    "long": 121.6177,
    "price_level": 3,
    "website": ""
  },
  {
    "id": "poi092",
    "name": "韓美膳 (Hansot Bab)",
    "category": "餐廳",
    "address": "台北市南港區經貿二路131號",
    "phone": "",
    "opening_hours": "11:00-21:30",
    "services": [
      "韓式定食",
      "韓國街頭小吃"
    ],
    "description": "主打健康韓式定食的休閒風格韓國餐廳，供應石鍋拌飯、韓式炸雞、紫菜包飯等多樣料理，融合理念養生與美味",
    "rating": 4.0,
    "review_count": 50,
    "lat": 25.0561,
    "long": 121.6177,
    "price_level": 2,
    "website": ""
  },
  {
    "id": "poi093",
    "name": "幻日線法式甜點",
    "category": "餐廳",
    "address": "台北市南港區經貿二路131號",
    "phone": "",
    "opening_hours": "11:00-21:30",
    "services": [
      "法式糕點",
      "咖啡"
    ],
    "description": "源自淡水的人氣法式甜點店進駐南港，嚴選食材以精準工序打造多層次風味甜點，每款甜點皆有高雅精緻的口感",
    "rating": 4.5,
    "review_count": 50,
    "lat": 25.0561,
    "long": 121.6177,
    "price_level": 3,
    "website": ""
  },
  {
    "id": "poi094",
    "name": "林聰明沙鍋魚頭 (嘉義沙鍋魚頭)",
    "category": "餐廳",
    "address": "台北市南港區經貿二路131號B1",
    "phone": "",
    "opening_hours": "11:00-21:30",
    "services": [
      "台灣小吃",
      "砂鍋魚頭"
    ],
    "description": "嘉義百年名店北部首店，招牌沙鍋魚頭以炸魚頭配熬十年高湯和多種配料燉煮，味道濃郁鮮美，是北台灣難得一嚐的傳統美味",
    "rating": 4.4,
    "review_count": 200,
    "lat": 25.0561,
    "long": 121.6177,
    "price_level": 2,
    "website": ""
  },
  {
    "id": "poi095",
    "name": "金子半之助 天丼專門店",
    "category": "餐廳",
    "address": "台北市南港區經貿二路131號B1",
    "phone": "",
    "opening_hours": "11:00-21:30",
    "services": [
      "日式天丼",
      "海鮮蓋飯"
    ],
    "description": "東京著名的天丼（炸蝦蓋飯）專門店台北分店，招牌江戶前天丼以滿滿炸蝦、穴子、蔬菜鋪蓋米飯，淋上秘傳醬汁風味絕佳",
    "rating": 4.3,
    "review_count": 100,
    "lat": 25.0561,
    "long": 121.6177,
    "price_level": 2,
    "website": ""
  },
  {
    "id": "poi096",
    "name": "一風堂 Ippudo (南港店)",
    "category": "餐廳",
    "address": "台北市南港區經貿二路131號5樓",
    "phone": "",
    "opening_hours": "11:00-21:30",
    "services": [
      "豚骨拉麵",
      "日式拉麵"
    ],
    "description": "知名日式拉麵品牌一風堂進駐南港，提供招牌白丸元味與赤丸新味豚骨拉麵，以及期間限定特色麵款，湯頭濃郁麵條勁道",
    "rating": 4.1,
    "review_count": 300,
    "lat": 25.0561,
    "long": 121.6177,
    "price_level": 2,
    "website": ""
  },
  {
    "id": "poi097",
    "name": "鶴橋風月大阪燒",
    "category": "餐廳",
    "address": "台北市南港區經貿二路131號5樓",
    "phone": "",
    "opening_hours": "11:00-21:30",
    "services": [
      "大阪燒",
      "鐵板燒"
    ],
    "description": "來自大阪鶴橋的平價大阪燒連鎖店，提供現烤現做的關西風御好燒、炒麵等鐵板料理，份量十足，口味道地",
    "rating": 4.2,
    "review_count": 50,
    "lat": 25.0561,
    "long": 121.6177,
    "price_level": 2,
    "website": ""
  },
  {
    "id": "poi098",
    "name": "漢來上海湯包 (南港店)",
    "category": "餐廳",
    "address": "台北市南港區經貿二路131號3樓",
    "phone": "",
    "opening_hours": "11:00-21:30",
    "services": [
      "上海料理",
      "小籠湯包"
    ],
    "description": "五星級餐飲集團漢來美食旗下的湯包名店，招牌18摺小籠湯包皮薄餡多汁，並提供主廚私房菜、精緻甜點等多元餐點",
    "rating": 4.6,
    "review_count": 150,
    "lat": 25.0561,
    "long": 121.6177,
    "price_level": 4,
    "website": ""
  },
  {
    "id": "poi099",
    "name": "京昌園 燒肉專門店",
    "category": "餐廳",
    "address": "台北市南港區經貿二路131號5樓",
    "phone": "",
    "opening_hours": "11:00-21:30",
    "services": [
      "日式燒肉",
      "和牛"
    ],
    "description": "創立於1962年的日本靜岡燒肉老店台灣首店，嚴選和牛肉品佐以秘製醬汁碳烤，重現傳統日式燒肉的絕佳風味",
    "rating": 4.5,
    "review_count": 80,
    "lat": 25.0561,
    "long": 121.6177,
    "price_level": 4,
    "website": ""
  },
  {
    "id": "poi100",
    "name": "北大荒水餃店 (南港店)",
    "category": "餐廳",
    "address": "台北市南港區南港路一段201號",
    "phone": "02-2788-0455",
    "opening_hours": "11:00-21:30",
    "services": [
      "水餃",
      "滷味小吃"
    ],
    "description": "在地知名的平價美食，巨無霸水餃一顆9元且料多飽足，各式煙燻滷味更是隱藏版招牌，吸引許多饕客專程前來排隊品嚐",
    "rating": 3.9,
    "review_count": 9000,
    "lat": 25.0555,
    "long": 121.6149,
    "price_level": 1,
    "website": ""
  }
]
